[
  {
    "name": "Chinh phục Fansipan",
    "time": "2025-06-03 đến 2025-06-10",
    "location": "Lào Cai",
    "price": "5000000",
    "image": "",
    "category": "mountain",
    "timeline": [],
    "created_by": "admin",
    "lat": 22.3386,
    "lon": 103.7744
  },
  {
    "name": "Trekking Tà Năng",
    "time": "2025-06-03 đến 2025-06-20",
    "location": "Lâm Đồng",
    "price": "3000000",
    "image": "",
    "category": "mountain",
    "timeline": [],
    "created_by": "admin",
    "lat": 11.6600,
    "lon": 108.6800
  },
  {
    "name": "Khám phá Cúc Phương",
    "time": "2025-06-15 đến 2025-06-17",
    "location": "Ninh Bình",
    "price": "2000000",
    "image": "",
    "category": "forest",
    "timeline": [],
    "created_by": "admin",
    "lat": 20.2400,
    "lon": 105.7100
  },
  {
    "name": "Thám hiểm rừng U Minh",
    "time": "2025-06-21 đến 2025-06-23",
    "location": "Cà Mau",
    "price": "2500000",
    "image": "",
    "category": "forest",
    "timeline": [],
    "created_by": "admin",
    "lat": 9.2000,
    "lon": 105.0000
  },
  {
    "name": "Khám phá rừng Bạch Mã",
    "time": "2025-07-01 đến 2025-07-03",
    "location": "Thừa Thiên Huế",
    "price": "2700000",
    "image": "",
    "category": "forest",
    "timeline": [],
    "created_by": "admin",
    "lat": 16.1950,
    "lon": 107.8550
  },
  {
    "name": "Cắm trại hồ Dầu Tiếng",
    "time": "2025-06-25 đến 2025-06-26",
    "location": "Tây Ninh",
    "price": "1500000",
    "image": "",
    "category": "camping",
    "timeline": [],
    "created_by": "admin",
    "lat": 11.3333,
    "lon": 106.3333
  },
  {
    "name": "Cắm trại Đồng Mô",
    "time": "2025-07-04 đến 2025-07-05",
    "location": "Hà Nội",
    "price": "1800000",
    "image": "",
    "category": "camping",
    "timeline": [],
    "created_by": "admin",
    "lat": 21.0800,
    "lon": 105.4700
  },
  {
    "name": "Khám phá Hội An",
    "time": "2025-07-10 đến 2025-07-12",
    "location": "Quảng Nam",
    "price": "4000000",
    "image": "",
    "category": "tour",
    "timeline": [],
    "created_by": "admin",
    "lat": 15.8800,
    "lon": 108.3300
  },
  {
    "name": "Tham quan Cố đô Huế",
    "time": "2025-07-13 đến 2025-07-15",
    "location": "Thừa Thiên Huế",
    "price": "4500000",
    "image": "",
    "category": "tour",
    "timeline": [],
    "created_by": "admin",
    "lat": 16.4637,
    "lon": 107.5909
  },
  {
    "name": "Di tích địa đạo Củ Chi",
    "time": "2025-06-12 đến 2025-06-13",
    "location": "TP. HCM",
    "price": "2200000",
    "image": "",
    "category": "tour",
    "timeline": [],
    "created_by": "admin",
    "lat": 11.1450,
    "lon": 106.4600
  },
  {
    "name": "Làng cổ Đường Lâm",
    "time": "2025-08-01 đến 2025-08-02",
    "location": "Hà Nội",
    "price": "2000000",
    "image": "",
    "category": "tour",
    "timeline": [],
    "created_by": "admin",
    "lat": 21.1350,
    "lon": 105.4200
  },
  {
    "name": "Nghỉ dưỡng Phú Quốc",
    "time": "2025-07-18 đến 2025-07-22",
    "location": "Kiên Giang",
    "price": "6000000",
    "image": "",
    "category": "sea",
    "timeline": [],
    "created_by": "admin",
    "lat": 10.2800,
    "lon": 103.9500
  },
  {
    "name": "Tắm biển Nha Trang",
    "time": "2025-07-25 đến 2025-07-27",
    "location": "Khánh Hòa",
    "price": "5500000",
    "image": "",
    "category": "sea",
    "timeline": [],
    "created_by": "admin",
    "lat": 12.2388,
    "lon": 109.1967
  },
  {
    "name": "Lặn biển Cù Lao Chàm",
    "time": "2025-08-05 đến 2025-08-07",
    "location": "Quảng Nam",
    "price": "6200000",
    "image": "",
    "category": "sea",
    "timeline": [],
    "created_by": "admin",
    "lat": 15.9550,
    "lon": 108.5000
  },
  {
    "name": "Câu cá đảo Nam Du",
    "time": "2025-08-15 đến 2025-08-17",
    "location": "Kiên Giang",
    "price": "4800000",
    "image": "",
    "category": "sea",
    "timeline": [],
    "created_by": "admin",
    "lat": 9.6800,
    "lon": 104.3500
  },
  {
    "name": "Khám phá bãi Ông Lang",
    "time": "2025-08-20 đến 2025-08-22",
    "location": "Phú Quốc",
    "price": "5100000",
    "image": "",
    "category": "sea",
    "timeline": [],
    "created_by": "admin",
    "lat": 10.3150,
    "lon": 103.8850
  },
  {
    "name": "Khám phá TP HCM",
    "time": "2025-06-30 đến 2025-07-01",
    "location": "TP. HCM",
    "price": "3000000",
    "image": "",
    "category": "city",
    "timeline": [],
    "created_by": "admin",
    "lat": 10.7769,
    "lon": 106.7009
  },
  {
    "name": "Dạo quanh Hà Nội",
    "time": "2025-08-10 đến 2025-08-11",
    "location": "Hà Nội",
    "price": "3200000",
    "image": "",
    "category": "city",
    "timeline": [],
    "created_by": "admin",
    "lat": 21.0285,
    "lon": 105.8542
  },
  {
    "name": "Khám phá Đà Nẵng về đêm",
    "time": "2025-08-25 đến 2025-08-27",
    "location": "Đà Nẵng",
    "price": "4200000",
    "image": "",
    "category": "city",
    "timeline": [],
    "created_by": "admin",
    "lat": 16.0479,
    "lon": 108.2209
  }
]